{"stations": [{"lat": "31.242674", "lng": "121.50756", "name": "陆家嘴", "number": "313"}, {"lat": "31.228908", "lng": "121.451193", "name": "静安寺", "number": "298"}, {"lat": "31.252972", "lng": "121.460865", "name": "上海火车站", "number": "441"}, {"lat": "31.238793", "lng": "121.478646", "name": "人民广场", "number": "416"}, {"lat": "31.208784", "lng": "121.562299", "name": "龙阳路", "number": "150"}, {"lat": "31.21984", "lng": "121.392156", "name": "威宁路", "number": "78"}, {"lat": "31.228362", "lng": "121.536998", "name": "浦电路", "number": "197"}, {"lat": "31.192147", "lng": "121.431992", "name": "宜山路", "number": "184"}, {"lat": "31.242384", "lng": "121.488754", "name": "南京东路", "number": "237"}, {"lat": "31.178577", "lng": "121.44012", "name": "上海游泳馆", "number": "39"}, {"lat": "31.1985", "lng": "121.443228", "name": "徐家汇", "number": "292"}, {"lat": "31.228108", "lng": "121.478283", "name": "黄陂南路", "number": "126"}, {"lat": "31.204436", "lng": "121.407718", "name": "伊犁路", "number": "79"}, {"lat": "31.256264", "lng": "121.578241", "name": "云山路", "number": "48"}, {"lat": "31.115911", "lng": "121.390974", "name": "莘庄", "number": "256"}, {"lat": "31.238748", "lng": "121.519543", "name": "东昌路", "number": "148"}, {"lat": "31.221689", "lng": "121.378963", "name": "北新泾", "number": "84"}, {"lat": "31.224879", "lng": "121.549106", "name": "上海科技馆", "number": "60"}, {"lat": "31.180353", "lng": "121.423485", "name": "桂林路", "number": "129"}, {"lat": "31.232482", "lng": "121.48437", "name": "大世界", "number": "119"}, {"lat": "31.22285", "lng": "121.465158", "name": "陕西南路", "number": "238"}, {"lat": "31.220283", "lng": "121.395435", "name": "大渡河路", "number": "48"}, {"lat": "31.223962", "lng": "121.422811", "name": "中山公园", "number": "237"}, {"lat": "31.232284", "lng": "121.374767", "name": "真北路", "number": "61"}, {"lat": "31.103932", "lng": "121.38995", "name": "春申路", "number": "24"}, {"lat": "31.175478", "lng": "121.402322", "name": "漕河泾开发区", "number": "230"}, {"lat": "31.185339", "lng": "121.425846", "name": "三林", "number": "59"}, {"lat": "31.136089", "lng": "121.407819", "name": "莲花路", "number": "195"}, {"lat": "31.075428", "lng": "121.550472", "name": "沈杜公路", "number": "121"}, {"lat": "31.2042", "lng": "121.396272", "name": "水城路", "number": "42"}, {"lat": "31.216895", "lng": "121.533355", "name": "蓝村路", "number": "91"}, {"lat": "31.160883", "lng": "121.43399", "name": "上海南站", "number": "194"}, {"lat": "31.223353", "lng": "121.364282", "name": "淞虹路", "number": "196"}, {"lat": "31.185339", "lng": "121.425846", "name": "御桥", "number": "43"}, {"lat": "31.185339", "lng": "121.425846", "name": "江浦公园", "number": "41"}, {"lat": "31.185339", "lng": "121.425846", "name": "丰庄", "number": "41"}, {"lat": "31.188631", "lng": "121.442458", "name": "上海体育馆", "number": "115"}, {"lat": "31.234778", "lng": "121.530808", "name": "世纪大道", "number": "185"}, {"lat": "31.256872", "lng": "121.4815", "name": "宝山路", "number": "48"}, {"lat": "31.238338", "lng": "121.41847", "name": "金沙江路", "number": "93"}, {"lat": "31.245415", "lng": "121.423453", "name": "曹杨路", "number": "155"}, {"lat": "31.249656", "lng": "121.487224", "name": "天潼路", "number": "54"}, {"lat": "31.185339", "lng": "121.425846", "name": "提篮桥", "number": "29"}, {"lat": "31.245611", "lng": "121.443224", "name": "长寿路", "number": "130"}, {"lat": "31.235491", "lng": "121.465265", "name": "南京西路", "number": "197"}, {"lat": "31.215843", "lng": "121.624643", "name": "广兰路", "number": "172"}, {"lat": "31.185339", "lng": "121.425846", "name": "龙华", "number": "28"}, {"lat": "31.143168", "lng": "121.324257", "name": "九亭", "number": "168"}, {"lat": "31.225359", "lng": "121.437307", "name": "江苏路", "number": "171"}, {"lat": "31.311911", "lng": "121.45282", "name": "彭浦新村", "number": "129"}, {"lat": "31.20934", "lng": "121.607282", "name": "金科路", "number": "157"}, {"lat": "31.194786", "lng": "121.306009", "name": "徐泾东", "number": "166"}, {"lat": "31.171581", "lng": "121.389654", "name": "合川路", "number": "97"}, {"lat": "31.265935", "lng": "121.506089", "name": "临平路", "number": "65"}, {"lat": "31.185339", "lng": "121.425846", "name": "龙耀路", "number": "16"}, {"lat": "31.185339", "lng": "121.425846", "name": "滴水湖", "number": "14"}, {"lat": "31.185339", "lng": "121.425846", "name": "云锦路", "number": "14"}, {"lat": "31.216314", "lng": "121.409303", "name": "娄山关路", "number": "163"}, {"lat": "31.248517", "lng": "121.486384", "name": "曲阜路", "number": "53"}, {"lat": "31.185339", "lng": "121.425846", "name": "复兴岛", "number": "7"}, {"lat": "31.252173", "lng": "121.434719", "name": "镇坪路", "number": "117"}, {"lat": "31.219286", "lng": "121.456212", "name": "常熟路", "number": "118"}, {"lat": "31.179632", "lng": "121.491007", "name": "长清路", "number": "55"}, {"lat": "31.294473", "lng": "121.487976", "name": "大柏树", "number": "78"}, {"lat": "31.23336", "lng": "121.492385", "name": "豫园", "number": "72"}, {"lat": "31.207031", "lng": "121.592173", "name": "张江高科", "number": "170"}, {"lat": "31.27684", "lng": "121.484211", "name": "虹口足球场", "number": "136"}, {"lat": "31.174738", "lng": "121.440355", "name": "漕宝路", "number": "109"}, {"lat": "31.20206", "lng": "121.425849", "name": "虹桥路", "number": "120"}, {"lat": "31.262073", "lng": "121.536495", "name": "宁国路", "number": "45"}, {"lat": "31.224029", "lng": "121.48797", "name": "老西门", "number": "70"}, {"lat": "31.279926", "lng": "121.506307", "name": "四平路", "number": "62"}, {"lat": "31.308101", "lng": "121.519118", "name": "江湾体育场", "number": "67"}, {"lat": "31.236089", "lng": "121.428415", "name": "隆德路", "number": "45"}, {"lat": "31.215193", "lng": "121.421747", "name": "延安西路", "number": "116"}, {"lat": "31.222011", "lng": "121.50338", "name": "小南门", "number": "54"}, {"lat": "31.310381", "lng": "121.490037", "name": "江湾镇", "number": "89"}, {"lat": "31.260653", "lng": "121.446406", "name": "中潭路", "number": "81"}, {"lat": "31.160748", "lng": "121.354534", "name": "七宝", "number": "118"}, {"lat": "31.211428", "lng": "121.473887", "name": "打浦桥", "number": "132"}, {"lat": "31.286451", "lng": "121.486888", "name": "赤峰路", "number": "52"}, {"lat": "31.221388", "lng": "121.479645", "name": "新天地", "number": "47"}, {"lat": "31.240136", "lng": "121.447059", "name": "昌平路", "number": "88"}, {"lat": "31.233146", "lng": "121.553507", "name": "杨高中路", "number": "90"}, {"lat": "31.244054", "lng": "121.473287", "name": "新闸路", "number": "54"}, {"lat": "31.337148", "lng": "121.446302", "name": "通河新村", "number": "118"}, {"lat": "31.235691", "lng": "121.521222", "name": "商城路", "number": "141"}, {"lat": "31.202139", "lng": "121.416037", "name": "宋园路", "number": "45"}, {"lat": "31.18344", "lng": "121.499609", "name": "耀华路", "number": "77"}, {"lat": "31.205118", "lng": "121.454722", "name": "肇嘉浜路", "number": "103"}, {"lat": "31.228084", "lng": "121.437519", "name": "武宁路", "number": "32"}, {"lat": "31.26349", "lng": "121.494603", "name": "海伦路", "number": "84"}, {"lat": "31.198572", "lng": "121.326372", "name": "虹桥火车站", "number": "225"}, {"lat": "31.302712", "lng": "121.328233", "name": "南翔", "number": "96"}, {"lat": "31.241573", "lng": "121.318851", "name": "金运路", "number": "88"}, {"lat": "31.15531", "lng": "121.343227", "name": "中春路", "number": "40"}, {"lat": "31.247163", "lng": "121.463485", "name": "汉中路", "number": "78"}, {"lat": "31.268755", "lng": "121.473735", "name": "西藏北路", "number": "68"}, {"lat": "31.245521", "lng": "121.524696", "name": "浦东大道", "number": "98"}, {"lat": "31.058659", "lng": "121.237292", "name": "松江大学城", "number": "92"}, {"lat": "31.262935", "lng": "121.51786", "name": "大连路", "number": "90"}, {"lat": "31.211182", "lng": "121.451849", "name": "衡山路", "number": "38"}, {"lat": "31.277415", "lng": "121.460388", "name": "延长路", "number": "93"}, {"lat": "31.207027", "lng": "121.494607", "name": "西藏南路", "number": "98"}, {"lat": "31.25654", "lng": "121.488482", "name": "四川北路", "number": "72"}, {"lat": "31.198952", "lng": "121.554637", "name": "芳华路", "number": "74"}, {"lat": "31.108848", "lng": "121.234285", "name": "佘山", "number": "88"}, {"lat": "31.166065", "lng": "121.498775", "name": "杨思", "number": "74"}, {"lat": "31.216768", "lng": "121.491201", "name": "陆家浜路", "number": "101"}, {"lat": "31.360912", "lng": "121.438943", "name": "共富新村", "number": "93"}, {"lat": "31.053125", "lng": "121.76044", "name": "惠南", "number": "47"}, {"lat": "31.147938", "lng": "121.418775", "name": "锦江乐园", "number": "88"}, {"lat": "31.123265", "lng": "121.265128", "name": "泗泾", "number": "85"}, {"lat": "31.32471", "lng": "121.451949", "name": "共康路", "number": "91"}, {"lat": "31.204295", "lng": "121.479473", "name": "鲁班路", "number": "78"}, {"lat": "31.2852", "lng": "121.456988", "name": "上海马戏城", "number": "84"}, {"lat": "31.273842", "lng": "121.394991", "name": "李子园", "number": "74"}, {"lat": "31.337024", "lng": "121.49667", "name": "长江南路", "number": "72"}, {"lat": "31.208532", "lng": "121.46586", "name": "嘉善路", "number": "64"}, {"lat": "31.176354", "lng": "121.501116", "name": "成山路", "number": "84"}, {"lat": "31.207556", "lng": "121.439046", "name": "交通大学", "number": "79"}, {"lat": "31.257036", "lng": "121.522429", "name": "杨树浦路", "number": "80"}, {"lat": "31.279598", "lng": "121.427976", "name": "大华三路", "number": "83"}, {"lat": "31.278278", "lng": "121.514551", "name": "鞍山新村", "number": "45"}, {"lat": "31.196397", "lng": "121.459855", "name": "东安路", "number": "82"}, {"lat": "31.290416", "lng": "121.42617", "name": "行知路", "number": "79"}, {"lat": "31.349931", "lng": "121.377798", "name": "顾村公园", "number": "77"}, {"lat": "31.294707", "lng": "121.515228", "name": "国权路", "number": "55"}, {"lat": "31.238399", "lng": "121.539377", "name": "源深体育中心", "number": "46"}, {"lat": "31.214518", "lng": "121.504652", "name": "南浦大桥", "number": "45"}, {"lat": "31.269512", "lng": "121.427518", "name": "新村路", "number": "71"}, {"lat": "31.192251", "lng": "121.703057", "name": "川沙", "number": "61"}, {"lat": "31.214586", "lng": "121.524295", "name": "塘桥", "number": "82"}, {"lat": "31.191535", "lng": "121.448733", "name": "上海体育场", "number": "79"}, {"lat": "31.287002", "lng": "121.354422", "name": "桃浦新村", "number": "73"}, {"lat": "31.298525", "lng": "121.454943", "name": "汶水路", "number": "82"}, {"lat": "31.214366", "lng": "121.481521", "name": "马当路", "number": "54"}, {"lat": "31.324754", "lng": "121.490064", "name": "殷高西路", "number": "73"}, {"lat": "31.199233", "lng": "121.384952", "name": "龙溪路", "number": "34"}, {"lat": "31.327871", "lng": "121.537012", "name": "市光路", "number": "72"}, {"lat": "31.122262", "lng": "121.503681", "name": "芦恒路", "number": "70"}, {"lat": "31.193466", "lng": "121.544715", "name": "锦绣路", "number": "71"}, {"lat": "31.376139", "lng": "121.49818", "name": "淞滨路", "number": "30"}, {"lat": "31.396247", "lng": "121.242421", "name": "嘉定北", "number": "67"}, {"lat": "31.192894", "lng": "121.529421", "name": "杨高南路", "number": "70"}, {"lat": "31.164394", "lng": "121.520599", "name": "高青路", "number": "43"}, {"lat": "31.219183", "lng": "121.66111", "name": "唐镇", "number": "72"}, {"lat": "31.283928", "lng": "121.532926", "name": "黄兴路", "number": "66"}, {"lat": "31.325614", "lng": "121.393781", "name": "上海大学", "number": "66"}, {"lat": "31.267633", "lng": "121.40856", "name": "上海西站", "number": "65"}, {"lat": "31.022373", "lng": "121.425591", "name": "东川路", "number": "64"}, {"lat": "31.19969", "lng": "121.468633", "name": "大木桥路 ", "number": "0"}, {"lat": "31.294254", "lng": "121.539859", "name": "延吉中路", "number": "66"}, {"lat": "31.281477", "lng": "121.495524", "name": "曲阳路", "number": "67"}, {"lat": "31.302973", "lng": "121.519576", "name": "五角场", "number": "61"}, {"lat": "31.174888", "lng": "121.369455", "name": "紫藤路", "number": "11"}, {"lat": "31.126284", "lng": "121.398309", "name": "外环路", "number": "67"}, {"lat": "31.173999", "lng": "121.449333", "name": "龙漕路", "number": "61"}, {"lat": "31.214966", "lng": "121.556589", "name": "世纪公园", "number": "68"}, {"lat": "31.269682", "lng": "121.591973", "name": "博兴路", "number": "64"}, {"lat": "31.264355", "lng": "121.464303", "name": "中山北路", "number": "58"}, {"lat": "31.285955", "lng": "121.593685", "name": "巨峰路", "number": "59"}, {"lat": "31.287569", "lng": "121.511535", "name": "同济大学", "number": "61"}, {"lat": "31.18267", "lng": "121.442618", "name": "漕溪路", "number": "35"}, {"lat": "31.273301", "lng": "121.499065", "name": "邮电新村", "number": "43"}, {"lat": "31.241329", "lng": "121.547966", "name": "民生路", "number": "35"}, {"lat": "31.198943", "lng": "121.332858", "name": "虹桥2号航站楼", "number": "60"}, {"lat": "31.217591", "lng": "121.567559", "name": "花木路", "number": "59"}, {"lat": "31.072303", "lng": "121.406652", "name": "颛桥", "number": "54"}, {"lat": "31.247423", "lng": "121.416025", "name": "枫桥路", "number": "54"}, {"lat": "31.250726", "lng": "121.568545", "name": "德平路", "number": "46"}, {"lat": "31.398205", "lng": "121.429782", "name": "富锦路", "number": "58"}, {"lat": "31.262311", "lng": "121.586519", "name": "金桥路", "number": "55"}, {"lat": "31.309318", "lng": "121.418647", "name": "场中路", "number": "54"}, {"lat": "31.265146", "lng": "121.485049", "name": "东宝兴路", "number": "50"}, {"lat": "31.035385", "lng": "121.23573", "name": "松江新城", "number": "41"}, {"lat": "31.375562", "lng": "121.435842", "name": "宝安公路", "number": "57"}, {"lat": "31.246107", "lng": "121.369098", "name": "祁连山南路", "number": "50"}, {"lat": "31.280173", "lng": "121.523289", "name": "江浦路", "number": "53"}, {"lat": "31.276314", "lng": "121.381069", "name": "祁连山路", "number": "49"}, {"lat": "31.32658", "lng": "121.403709", "name": "南陈路", "number": "23"}, {"lat": "31.258525", "lng": "121.473876", "name": "中兴路", "number": "50"}, {"lat": "31.277986", "lng": "121.538936", "name": "隆昌路", "number": "48"}, {"lat": "31.146051", "lng": "121.494764", "name": "凌兆新村", "number": "50"}, {"lat": "31.089357", "lng": "121.513727", "name": "江月路", "number": "51"}, {"lat": "31.177547", "lng": "121.515917", "name": "东明路", "number": "36"}, {"lat": "31.190638", "lng": "121.514889", "name": "高科西路", "number": "48"}, {"lat": "31.182696", "lng": "121.375384", "name": "龙柏新村", "number": "46"}, {"lat": "31.262227", "lng": "121.427038", "name": "岚皋路", "number": "48"}, {"lat": "31.04995", "lng": "121.414966", "name": "北桥", "number": "45"}, {"lat": "31.07901", "lng": "121.515615", "name": "联航路", "number": "39"}, {"lat": "31.101576", "lng": "121.511479", "name": "浦江镇", "number": "46"}, {"lat": "31.186755", "lng": "121.505401", "name": "云台路", "number": "37"}, {"lat": "31.198304", "lng": "121.521565", "name": "临沂新村", "number": "43"}, {"lat": "31.202523", "lng": "121.68578", "name": "华夏东路", "number": "49"}, {"lat": "31.162835", "lng": "121.445746", "name": "石龙路", "number": "43"}, {"lat": "31.029825", "lng": "121.222026", "name": "松江体育中心", "number": "45"}, {"lat": "31.335095", "lng": "121.25952", "name": "嘉定新城", "number": "44"}, {"lat": "31.320878", "lng": "121.537055", "name": "嫩江路", "number": "45"}, {"lat": "31.275903", "lng": "121.592944", "name": "五莲路", "number": "44"}, {"lat": "31.345346", "lng": "121.44267", "name": "呼兰路", "number": "46"}, {"lat": "31.011611", "lng": "121.396731", "name": "华宁路", "number": "31"}, {"lat": "31.263576", "lng": "121.641811", "name": "金海路", "number": "43"}, {"lat": "31.05426", "lng": "121.615917", "name": "三林东", "number": "42"}, {"lat": "31.187282", "lng": "121.463275", "name": "龙华中路", "number": "43"}, {"lat": "31.406977", "lng": "121.355215", "name": "美兰湖", "number": "39"}, {"lat": "31.212087", "lng": "121.448741", "name": "兆丰路", "number": "25"}, {"lat": "31.163203", "lng": "121.374051", "name": "星中路", "number": "39"}, {"lat": "31.170974", "lng": "121.359734", "name": "航中路", "number": "41"}, {"lat": "31.01647", "lng": "121.414109", "name": "金平路", "number": "37"}, {"lat": "31.38255", "lng": "121.232911", "name": "嘉定西", "number": "40"}, {"lat": "31.293586", "lng": "121.167089", "name": "安亭", "number": "35"}, {"lat": "31.000885", "lng": "121.227832", "name": "醉白池", "number": "23"}, {"lat": "31.24941", "lng": "121.496532", "name": "国际客运中心", "number": "38"}, {"lat": "31.310378", "lng": "121.536966", "name": "翔殷路", "number": "36"}, {"lat": "31.153722", "lng": "121.500165", "name": "灵岩南路", "number": "36"}, {"lat": "31.154143", "lng": "121.511441", "name": "上南路", "number": "35"}, {"lat": "31.05426", "lng": "121.615917", "name": "周浦东", "number": "34"}, {"lat": "31.362494", "lng": "121.368252", "name": "刘行", "number": "34"}, {"lat": "31.09346", "lng": "121.39553", "name": "银都路", "number": "32"}, {"lat": "31.412798", "lng": "121.444984", "name": "江杨北路", "number": "31"}, {"lat": "31.213347", "lng": "121.448919", "name": "上海图书馆", "number": "32"}, {"lat": "31.076984", "lng": "121.609722", "name": "鹤沙航城", "number": "33"}, {"lat": "31.209721", "lng": "121.528805", "name": "上海儿童医学中心", "number": "30"}, {"lat": "31.256307", "lng": "121.412593", "name": "真如", "number": "33"}, {"lat": "31.32349", "lng": "121.28131", "name": "马陆", "number": "32"}, {"lat": "31.284185", "lng": "121.614383", "name": "金京路", "number": "32"}, {"lat": "31.032364", "lng": "121.42167", "name": "剑川路", "number": "32"}, {"lat": "31.20142", "lng": "121.506526", "name": "浦三路", "number": "32"}, {"lat": "31.044828", "lng": "121.647464", "name": "新场", "number": "31"}, {"lat": "31.296256", "lng": "121.594045", "name": "东靖路", "number": "31"}, {"lat": "31.188539", "lng": "121.57574", "name": "罗山路", "number": "30"}, {"lat": "31.312179", "lng": "121.602771", "name": "杨高北路", "number": "31"}, {"lat": "31.340141", "lng": "121.599296", "name": "航津路", "number": "29"}, {"lat": "31.277748", "lng": "121.550823", "name": "爱国路", "number": "30"}, {"lat": "31.334211", "lng": "121.512031", "name": "新江湾城", "number": "32"}, {"lat": "31.320773", "lng": "121.413006", "name": "上大路", "number": "30"}, {"lat": "31.301289", "lng": "121.538162", "name": "黄兴公园", "number": "30"}, {"lat": "31.350726", "lng": "121.250286", "name": "白银路", "number": "28"}, {"lat": "31.154789", "lng": "121.518943", "name": "华夏西路", "number": "27"}, {"lat": "31.280227", "lng": "121.582408", "name": "东陆路", "number": "29"}, {"lat": "31.326209", "lng": "121.607374", "name": "外高桥保税区南", "number": "29"}, {"lat": "31.089773", "lng": "121.235265", "name": "洞泾", "number": "27"}, {"lat": "31.409277", "lng": "121.481024", "name": "友谊路", "number": "28"}, {"lat": "31.195351", "lng": "121.373453", "name": "上海动物园", "number": "30"}, {"lat": "31.244943", "lng": "121.557714", "name": "北洋泾路", "number": "26"}, {"lat": "31.064874", "lng": "121.258785", "name": "花桥", "number": "26"}, {"lat": "31.386821", "lng": "121.493056", "name": "水产路", "number": "26"}, {"lat": "31.352733", "lng": "121.592201", "name": "外高桥保税区北", "number": "23"}, {"lat": "31.158706", "lng": "121.485497", "name": "东方体育中心", "number": "22"}, {"lat": "31.154394", "lng": "121.811875", "name": "浦东国际机场", "number": "39"}, {"lat": "31.299065", "lng": "121.421432", "name": "大场镇", "number": "22"}, {"lat": "31.196831", "lng": "121.352385", "name": "虹桥1号航站楼", "number": "26"}, {"lat": "31.318075", "lng": "121.513593", "name": "三门路", "number": "22"}, {"lat": "31.393682", "lng": "121.362468", "name": "罗南新村", "number": "21"}, {"lat": "31.004935", "lng": "121.371925", "name": "闵行开发区", "number": "24"}, {"lat": "31.400797", "lng": "121.48461", "name": "宝杨路", "number": "21"}, {"lat": "31.174417", "lng": "121.619693", "name": "申江路", "number": "20"}, {"lat": "31.387147", "lng": "121.43302", "name": "友谊西路", "number": "22"}, {"lat": "31.359156", "lng": "121.580822", "name": "港城路", "number": "20"}, {"lat": "31.350159", "lng": "121.505625", "name": "淞发路", "number": "20"}, {"lat": "31.240312", "lng": "121.314624", "name": "金沙江西路", "number": "19"}, {"lat": "31.049072", "lng": "121.707897", "name": "野生动物园", "number": "18"}, {"lat": "31.290936", "lng": "121.185735", "name": "上海汽车城", "number": "18"}, {"lat": "31.316508", "lng": "121.594493", "name": "洲海路", "number": "18"}, {"lat": "31.308229", "lng": "121.594653", "name": "五洲大道", "number": "19"}, {"lat": "31.197641", "lng": "121.727323", "name": "凌空路", "number": "17"}, {"lat": "31.41371", "lng": "121.467089", "name": "铁力路", "number": "17"}, {"lat": "31.368892", "lng": "121.361453", "name": "潘广路", "number": "16"}, {"lat": "31.330248", "lng": "121.617542", "name": "光明路", "number": "14"}, {"lat": "31.190695", "lng": "121.499234", "name": "中华艺术宫", "number": "37"}, {"lat": "31.337299", "lng": "121.23111", "name": "上海赛车场", "number": "33"}, {"lat": "31.00819", "lng": "121.383959", "name": "文井路", "number": "15"}, {"lat": "31.28218", "lng": "121.369803", "name": "武威路", "number": "12"}, {"lat": "30.96723", "lng": "121.829425", "name": "临港大道", "number": "13"}, {"lat": "30.968593", "lng": "121.867328", "name": "书院", "number": "11"}, {"lat": "31.05426", "lng": "121.615917", "name": "航头东", "number": "11"}, {"lat": "31.179147", "lng": "121.474298", "name": "后滩", "number": "12"}, {"lat": "31.322315", "lng": "121.378124", "name": "祁华路", "number": "11"}, {"lat": "31.029825", "lng": "121.222026", "name": "松江南站", "number": "12"}, {"lat": "31.21876", "lng": "121.679446", "name": "创新中路", "number": "10"}, {"lat": "31.205336", "lng": "121.760609", "name": "远东大道", "number": "10"}, {"lat": "30.99164", "lng": "121.847682", "name": "惠南东", "number": "10"}, {"lat": "31.298372", "lng": "121.204282", "name": "昌吉东路", "number": "9"}, {"lat": "31.327118", "lng": "121.512083", "name": "殷高东路", "number": "9"}, {"lat": "31.36292", "lng": "121.504255", "name": "张华浜", "number": "7"}, {"lat": "31.174471", "lng": "121.801811", "name": "海天三路", "number": "10"}, {"lat": "31.180114", "lng": "121.617885", "name": "华夏中路", "number": "3"}]}